{
  "message": "Data fetched successfully",
  "total": 80,
  "data": [
    {
      "audit_id": "AD-000001",
      "sched_date": "01 Jan 2025",
      "start_date": "05 Jan 2025",
      "end_date": "07 Jan 2025",
      "zone": "North",
      "state": "Delhi",
      "city": "New Delhi",
      "location": "Connaught Place Branch",
      "type_of_location": "Branch",
      "auditor": "Ravi Kumar",
      "status": {
        "label": "Published",
        "color": "green"
      },
      "audit_name": "Chola Audit June"
    },
    {
      "audit_id": "AD-000002",
      "sched_date": "10 Feb 2025",
      "start_date": "12 Feb 2025",
      "end_date": "14 Feb 2025",
      "zone": "West",
      "state": "Maharashtra",
      "city": "Mumbai",
      "location": "Andheri West Office",
      "type_of_location": "Office",
      "auditor": "Sneha Patil",
      "status": {
        "label": "In Progress",
        "color": "orange"
      },
      "audit_name": "Cholamandalam Audit Review"
    },
    {
      "audit_id": "AD-000003",
      "sched_date": "20 Mar 2025",
      "start_date": "22 Mar 2025",
      "end_date": "24 Mar 2025",
      "zone": "South",
      "state": "Tamil Nadu",
      "city": "Chennai",
      "location": "T. Nagar Showroom",
      "type_of_location": "Showroom",
      "auditor": "Arjun Menon",
      "status": {
        "label": "Upcoming",
        "color": "purple"
      },
      "audit_name": "Branch Compliance Audit"
    },
    {
      "audit_id": "AD-000004",
      "sched_date": "05 Apr 2025",
      "start_date": "07 Apr 2025",
      "end_date": "09 Apr 2025",
      "zone": "East",
      "state": "West Bengal",
      "city": "Kolkata",
      "location": "Park Street Branch",
      "type_of_location": "Branch",
      "auditor": "Priya Sen",
      "status": {
        "label": "Cancelled",
        "color": "red"
      },
      "audit_name": "Financial Year End Audit"
    },
    {
      "audit_id": "AD-000005",
      "sched_date": "15 May 2025",
      "start_date": "18 May 2025",
      "end_date": "20 May 2025",
      "zone": "North",
      "state": "Uttar Pradesh",
      "city": "Lucknow",
      "location": "Hazratganj Office",
      "type_of_location": "Office",
      "auditor": "-",
      "status": {
        "label": "Upcoming",
        "color": "purple"
      },
      "audit_name": "Internal Process Audit"
    },
    {
      "audit_id": "AD-000006",
      "sched_date": "02 Jun 2025",
      "start_date": "04 Jun 2025",
      "end_date": "06 Jun 2025",
      "zone": "South",
      "state": "Karnataka",
      "city": "Bengaluru",
      "location": "Koramangala Branch",
      "type_of_location": "Branch",
      "auditor": "Vikram Rao",
      "status": {
        "label": "Published",
        "color": "green"
      },
      "audit_name": "Risk Assessment Audit"
    },
    {
      "audit_id": "AD-000007",
      "sched_date": "10 Jun 2025",
      "start_date": "12 Jun 2025",
      "end_date": "14 Jun 2025",
      "zone": "West",
      "state": "Gujarat",
      "city": "Ahmedabad",
      "location": "Navrangpura Office",
      "type_of_location": "Office",
      "auditor": "Hetal Shah",
      "status": {
        "label": "In Progress",
        "color": "orange"
      },
      "audit_name": "Customer Service Audit"
    },
    {
      "audit_id": "AD-000008",
      "sched_date": "18 Jun 2025",
      "start_date": "20 Jun 2025",
      "end_date": "22 Jun 2025",
      "zone": "North",
      "state": "Punjab",
      "city": "Chandigarh",
      "location": "Sector 17 Branch",
      "type_of_location": "Branch",
      "auditor": "Manpreet Singh",
      "status": {
        "label": "Upcoming",
        "color": "purple"
      },
      "audit_name": "Operational Efficiency Audit"
    },
    {
      "audit_id": "AD-000009",
      "sched_date": "25 Jun 2025",
      "start_date": "27 Jun 2025",
      "end_date": "29 Jun 2025",
      "zone": "East",
      "state": "Odisha",
      "city": "Bhubaneswar",
      "location": "Saheed Nagar Showroom",
      "type_of_location": "Showroom",
      "auditor": "Subhash Patra",
      "status": {
        "label": "Published",
        "color": "green"
      },
      "audit_name": "IT Security Audit"
    },
    {
      "audit_id": "AD-000010",
      "sched_date": "01 Jul 2025",
      "start_date": "03 Jul 2025",
      "end_date": "05 Jul 2025",
      "zone": "South",
      "state": "Andhra Pradesh",
      "city": "Visakhapatnam",
      "location": "MVP Colony Branch",
      "type_of_location": "Branch",
      "auditor": "Lakshmi Devi",
      "status": {
        "label": "Cancelled",
        "color": "red"
      },
      "audit_name": "Regulatory Compliance Audit"
    },
    {
      "audit_id": "AD-000011",
      "sched_date": "05 Jul 2025",
      "start_date": "07 Jul 2025",
      "end_date": "09 Jul 2025",
      "zone": "North",
      "state": "Rajasthan",
      "city": "Jaipur",
      "location": "MI Road Office",
      "type_of_location": "Office",
      "auditor": "Rajesh Sharma",
      "status": {
        "label": "Published",
        "color": "green"
      },
      "audit_name": "Annual Branch Audit"
    },
    {
      "audit_id": "AD-000012",
      "sched_date": "12 Jul 2025",
      "start_date": "14 Jul 2025",
      "end_date": "16 Jul 2025",
      "zone": "West",
      "state": "Goa",
      "city": "Panaji",
      "location": "Patto Branch",
      "type_of_location": "Branch",
      "auditor": "Fernandes Cruz",
      "status": {
        "label": "In Progress",
        "color": "orange"
      },
      "audit_name": "Quarter Review Audit"
    },
    {
      "audit_id": "AD-000013",
      "sched_date": "20 Jul 2025",
      "start_date": "22 Jul 2025",
      "end_date": "24 Jul 2025",
      "zone": "East",
      "state": "Bihar",
      "city": "Patna",
      "location": "Gandhi Maidan Branch",
      "type_of_location": "Branch",
      "auditor": "Amit Dubey",
      "status": {
        "label": "Upcoming",
        "color": "purple"
      },
      "audit_name": "Chola Audit June"
    },
    {
      "audit_id": "AD-000014",
      "sched_date": "28 Jul 2025",
      "start_date": "30 Jul 2025",
      "end_date": "01 Aug 2025",
      "zone": "South",
      "state": "Kerala",
      "city": "Kochi",
      "location": "MG Road Showroom",
      "type_of_location": "Showroom",
      "auditor": "Thomas Varghese",
      "status": {
        "label": "Published",
        "color": "green"
      },
      "audit_name": "Cholamandalam Audit Review"
    },
    {
      "audit_id": "AD-000015",
      "sched_date": "03 Aug 2025",
      "start_date": "05 Aug 2025",
      "end_date": "07 Aug 2025",
      "zone": "North",
      "state": "Haryana",
      "city": "Gurugram",
      "location": "Cyber City Office",
      "type_of_location": "Office",
      "auditor": "Neha Yadav",
      "status": {
        "label": "Upcoming",
        "color": "purple"
      },
      "audit_name": "Branch Compliance Audit"
    },
    {
      "audit_id": "AD-000016",
      "sched_date": "10 Aug 2025",
      "start_date": "12 Aug 2025",
      "end_date": "14 Aug 2025",
      "zone": "West",
      "state": "Maharashtra",
      "city": "Pune",
      "location": "Shivajinagar Branch",
      "type_of_location": "Branch",
      "auditor": "Suresh Joshi",
      "status": {
        "label": "Cancelled",
        "color": "red"
      },
      "audit_name": "Financial Year End Audit"
    },
    {
      "audit_id": "AD-000017",
      "sched_date": "18 Aug 2025",
      "start_date": "20 Aug 2025",
      "end_date": "22 Aug 2025",
      "zone": "East",
      "state": "Jharkhand",
      "city": "Ranchi",
      "location": "Main Road Office",
      "type_of_location": "Office",
      "auditor": "Sunita Mahato",
      "status": {
        "label": "Published",
        "color": "green"
      },
      "audit_name": "Internal Process Audit"
    },
    {
      "audit_id": "AD-000018",
      "sched_date": "25 Aug 2025",
      "start_date": "27 Aug 2025",
      "end_date": "29 Aug 2025",
      "zone": "South",
      "state": "Telangana",
      "city": "Hyderabad",
      "location": "Banjara Hills Branch",
      "type_of_location": "Branch",
      "auditor": "Kavitha Reddy",
      "status": {
        "label": "In Progress",
        "color": "orange"
      },
      "audit_name": "Risk Assessment Audit"
    },
    {
      "audit_id": "AD-000019",
      "sched_date": "01 Sep 2025",
      "start_date": "03 Sep 2025",
      "end_date": "05 Sep 2025",
      "zone": "North",
      "state": "Uttarakhand",
      "city": "Dehradun",
      "location": "Rajpur Road Showroom",
      "type_of_location": "Showroom",
      "auditor": "-",
      "status": {
        "label": "Upcoming",
        "color": "purple"
      },
      "audit_name": "Customer Service Audit"
    },
    {
      "audit_id": "AD-000020",
      "sched_date": "08 Sep 2025",
      "start_date": "10 Sep 2025",
      "end_date": "12 Sep 2025",
      "zone": "West",
      "state": "Madhya Pradesh",
      "city": "Indore",
      "location": "MG Road Branch",
      "type_of_location": "Branch",
      "auditor": "Ankit Patel",
      "status": {
        "label": "Published",
        "color": "green"
      },
      "audit_name": "Operational Efficiency Audit"
    },
    {
      "audit_id": "AD-000021",
      "sched_date": "15 Sep 2025",
      "start_date": "17 Sep 2025",
      "end_date": "19 Sep 2025",
      "zone": "East",
      "state": "Assam",
      "city": "Guwahati",
      "location": "GS Road Office",
      "type_of_location": "Office",
      "auditor": "Biren Borah",
      "status": {
        "label": "Upcoming",
        "color": "purple"
      },
      "audit_name": "IT Security Audit"
    },
    {
      "audit_id": "AD-000022",
      "sched_date": "22 Sep 2025",
      "start_date": "24 Sep 2025",
      "end_date": "26 Sep 2025",
      "zone": "South",
      "state": "Tamil Nadu",
      "city": "Coimbatore",
      "location": "RS Puram Branch",
      "type_of_location": "Branch",
      "auditor": "Pradeep Nair",
      "status": {
        "label": "In Progress",
        "color": "orange"
      },
      "audit_name": "Regulatory Compliance Audit"
    },
    {
      "audit_id": "AD-000023",
      "sched_date": "30 Sep 2025",
      "start_date": "02 Oct 2025",
      "end_date": "04 Oct 2025",
      "zone": "North",
      "state": "Delhi",
      "city": "New Delhi",
      "location": "Nehru Place Office",
      "type_of_location": "Office",
      "auditor": "Deepak Verma",
      "status": {
        "label": "Published",
        "color": "green"
      },
      "audit_name": "Annual Branch Audit"
    },
    {
      "audit_id": "AD-000024",
      "sched_date": "06 Oct 2025",
      "start_date": "08 Oct 2025",
      "end_date": "10 Oct 2025",
      "zone": "West",
      "state": "Gujarat",
      "city": "Surat",
      "location": "Ring Road Branch",
      "type_of_location": "Branch",
      "auditor": "Disha Mehta",
      "status": {
        "label": "Cancelled",
        "color": "red"
      },
      "audit_name": "Quarter Review Audit"
    },
    {
      "audit_id": "AD-000025",
      "sched_date": "13 Oct 2025",
      "start_date": "15 Oct 2025",
      "end_date": "17 Oct 2025",
      "zone": "South",
      "state": "Karnataka",
      "city": "Mysuru",
      "location": "Saraswathipuram Showroom",
      "type_of_location": "Showroom",
      "auditor": "Shylaja Murthy",
      "status": {
        "label": "Upcoming",
        "color": "purple"
      },
      "audit_name": "Chola Audit June"
    },
    {
      "audit_id": "AD-000026",
      "sched_date": "20 Oct 2025",
      "start_date": "22 Oct 2025",
      "end_date": "24 Oct 2025",
      "zone": "East",
      "state": "West Bengal",
      "city": "Kolkata",
      "location": "Salt Lake Branch",
      "type_of_location": "Branch",
      "auditor": "Rina Ghosh",
      "status": {
        "label": "Published",
        "color": "green"
      },
      "audit_name": "Cholamandalam Audit Review"
    },
    {
      "audit_id": "AD-000027",
      "sched_date": "27 Oct 2025",
      "start_date": "29 Oct 2025",
      "end_date": "31 Oct 2025",
      "zone": "North",
      "state": "Uttar Pradesh",
      "city": "Agra",
      "location": "Sanjay Place Office",
      "type_of_location": "Office",
      "auditor": "-",
      "status": {
        "label": "Upcoming",
        "color": "purple"
      },
      "audit_name": "Branch Compliance Audit"
    },
    {
      "audit_id": "AD-000028",
      "sched_date": "03 Nov 2025",
      "start_date": "05 Nov 2025",
      "end_date": "07 Nov 2025",
      "zone": "West",
      "state": "Maharashtra",
      "city": "Nagpur",
      "location": "Dharampeth Branch",
      "type_of_location": "Branch",
      "auditor": "Pallavi Deshmukh",
      "status": {
        "label": "In Progress",
        "color": "orange"
      },
      "audit_name": "Financial Year End Audit"
    },
    {
      "audit_id": "AD-000029",
      "sched_date": "10 Nov 2025",
      "start_date": "12 Nov 2025",
      "end_date": "14 Nov 2025",
      "zone": "South",
      "state": "Andhra Pradesh",
      "city": "Vijayawada",
      "location": "Benz Circle Showroom",
      "type_of_location": "Showroom",
      "auditor": "Ramesh Naidu",
      "status": {
        "label": "Published",
        "color": "green"
      },
      "audit_name": "Internal Process Audit"
    },
    {
      "audit_id": "AD-000030",
      "sched_date": "17 Nov 2025",
      "start_date": "19 Nov 2025",
      "end_date": "21 Nov 2025",
      "zone": "East",
      "state": "Chhattisgarh",
      "city": "Raipur",
      "location": "Pandri Office",
      "type_of_location": "Office",
      "auditor": "Monika Singh",
      "status": {
        "label": "Cancelled",
        "color": "red"
      },
      "audit_name": "Risk Assessment Audit"
    },
    {
      "audit_id": "AD-000031",
      "sched_date": "24 Nov 2025",
      "start_date": "26 Nov 2025",
      "end_date": "28 Nov 2025",
      "zone": "North",
      "state": "Himachal Pradesh",
      "city": "Shimla",
      "location": "Mall Road Branch",
      "type_of_location": "Branch",
      "auditor": "Anjali Thakur",
      "status": {
        "label": "Upcoming",
        "color": "purple"
      },
      "audit_name": "Customer Service Audit"
    },
    {
      "audit_id": "AD-000032",
      "sched_date": "01 Dec 2025",
      "start_date": "03 Dec 2025",
      "end_date": "05 Dec 2025",
      "zone": "South",
      "state": "Kerala",
      "city": "Thiruvananthapuram",
      "location": "Statue Junction Office",
      "type_of_location": "Office",
      "auditor": "Sreekanth Pillai",
      "status": {
        "label": "Published",
        "color": "green"
      },
      "audit_name": "Operational Efficiency Audit"
    },
    {
      "audit_id": "AD-000033",
      "sched_date": "08 Dec 2025",
      "start_date": "10 Dec 2025",
      "end_date": "12 Dec 2025",
      "zone": "West",
      "state": "Rajasthan",
      "city": "Udaipur",
      "location": "Chetak Circle Branch",
      "type_of_location": "Branch",
      "auditor": "Pooja Agarwal",
      "status": {
        "label": "In Progress",
        "color": "orange"
      },
      "audit_name": "IT Security Audit"
    },
    {
      "audit_id": "AD-000034",
      "sched_date": "15 Dec 2025",
      "start_date": "17 Dec 2025",
      "end_date": "19 Dec 2025",
      "zone": "East",
      "state": "Manipur",
      "city": "Imphal",
      "location": "Paona Bazar Showroom",
      "type_of_location": "Showroom",
      "auditor": "-",
      "status": {
        "label": "Upcoming",
        "color": "purple"
      },
      "audit_name": "Regulatory Compliance Audit"
    },
    {
      "audit_id": "AD-000035",
      "sched_date": "22 Dec 2025",
      "start_date": "24 Dec 2025",
      "end_date": "26 Dec 2025",
      "zone": "North",
      "state": "Delhi",
      "city": "New Delhi",
      "location": "Karol Bagh Branch",
      "type_of_location": "Branch",
      "auditor": "Kiran Malhotra",
      "status": {
        "label": "Published",
        "color": "green"
      },
      "audit_name": "Annual Branch Audit"
    },
    {
      "audit_id": "AD-000036",
      "sched_date": "29 Dec 2025",
      "start_date": "31 Dec 2025",
      "end_date": "02 Jan 2026",
      "zone": "South",
      "state": "Telangana",
      "city": "Hyderabad",
      "location": "Jubilee Hills Office",
      "type_of_location": "Office",
      "auditor": "Srinivas Reddy",
      "status": {
        "label": "Cancelled",
        "color": "red"
      },
      "audit_name": "Quarter Review Audit"
    },
    {
      "audit_id": "AD-000037",
      "sched_date": "05 Jan 2026",
      "start_date": "07 Jan 2026",
      "end_date": "09 Jan 2026",
      "zone": "West",
      "state": "Gujarat",
      "city": "Vadodara",
      "location": "Alkapuri Branch",
      "type_of_location": "Branch",
      "auditor": "Nilesh Patel",
      "status": {
        "label": "Published",
        "color": "green"
      },
      "audit_name": "Chola Audit June"
    },
    {
      "audit_id": "AD-000038",
      "sched_date": "12 Jan 2026",
      "start_date": "14 Jan 2026",
      "end_date": "16 Jan 2026",
      "zone": "East",
      "state": "Tripura",
      "city": "Agartala",
      "location": "VIP Road Showroom",
      "type_of_location": "Showroom",
      "auditor": "Biplab Dey",
      "status": {
        "label": "Upcoming",
        "color": "purple"
      },
      "audit_name": "Cholamandalam Audit Review"
    },
    {
      "audit_id": "AD-000039",
      "sched_date": "19 Jan 2026",
      "start_date": "21 Jan 2026",
      "end_date": "23 Jan 2026",
      "zone": "North",
      "state": "Uttar Pradesh",
      "city": "Varanasi",
      "location": "Sigra Office",
      "type_of_location": "Office",
      "auditor": "Alok Mishra",
      "status": {
        "label": "In Progress",
        "color": "orange"
      },
      "audit_name": "Branch Compliance Audit"
    },
    {
      "audit_id": "AD-000040",
      "sched_date": "26 Jan 2026",
      "start_date": "28 Jan 2026",
      "end_date": "30 Jan 2026",
      "zone": "South",
      "state": "Tamil Nadu",
      "city": "Madurai",
      "location": "Anna Nagar Branch",
      "type_of_location": "Branch",
      "auditor": "Murugan Selvam",
      "status": {
        "label": "Published",
        "color": "green"
      },
      "audit_name": "Financial Year End Audit"
    },
    {
      "audit_id": "AD-000041",
      "sched_date": "02 Feb 2026",
      "start_date": "04 Feb 2026",
      "end_date": "06 Feb 2026",
      "zone": "West",
      "state": "Maharashtra",
      "city": "Nashik",
      "location": "College Road Office",
      "type_of_location": "Office",
      "auditor": "Sachin Kulkarni",
      "status": {
        "label": "Upcoming",
        "color": "purple"
      },
      "audit_name": "Internal Process Audit"
    },
    {
      "audit_id": "AD-000042",
      "sched_date": "09 Feb 2026",
      "start_date": "11 Feb 2026",
      "end_date": "13 Feb 2026",
      "zone": "East",
      "state": "Meghalaya",
      "city": "Shillong",
      "location": "Police Bazar Branch",
      "type_of_location": "Branch",
      "auditor": "-",
      "status": {
        "label": "Upcoming",
        "color": "purple"
      },
      "audit_name": "Risk Assessment Audit"
    },
    {
      "audit_id": "AD-000043",
      "sched_date": "16 Feb 2026",
      "start_date": "18 Feb 2026",
      "end_date": "20 Feb 2026",
      "zone": "North",
      "state": "Haryana",
      "city": "Faridabad",
      "location": "Sector 15 Showroom",
      "type_of_location": "Showroom",
      "auditor": "Sanjay Hooda",
      "status": {
        "label": "Published",
        "color": "green"
      },
      "audit_name": "Customer Service Audit"
    },
    {
      "audit_id": "AD-000044",
      "sched_date": "23 Feb 2026",
      "start_date": "25 Feb 2026",
      "end_date": "27 Feb 2026",
      "zone": "South",
      "state": "Karnataka",
      "city": "Mangaluru",
      "location": "Hampankatta Branch",
      "type_of_location": "Branch",
      "auditor": "Dileep Shetty",
      "status": {
        "label": "In Progress",
        "color": "orange"
      },
      "audit_name": "Operational Efficiency Audit"
    },
    {
      "audit_id": "AD-000045",
      "sched_date": "02 Mar 2026",
      "start_date": "04 Mar 2026",
      "end_date": "06 Mar 2026",
      "zone": "West",
      "state": "Madhya Pradesh",
      "city": "Bhopal",
      "location": "MP Nagar Office",
      "type_of_location": "Office",
      "auditor": "Seema Tiwari",
      "status": {
        "label": "Cancelled",
        "color": "red"
      },
      "audit_name": "IT Security Audit"
    },
    {
      "audit_id": "AD-000046",
      "sched_date": "09 Mar 2026",
      "start_date": "11 Mar 2026",
      "end_date": "13 Mar 2026",
      "zone": "East",
      "state": "Bihar",
      "city": "Gaya",
      "location": "Station Road Branch",
      "type_of_location": "Branch",
      "auditor": "Vivek Prasad",
      "status": {
        "label": "Upcoming",
        "color": "purple"
      },
      "audit_name": "Regulatory Compliance Audit"
    },
    {
      "audit_id": "AD-000047",
      "sched_date": "16 Mar 2026",
      "start_date": "18 Mar 2026",
      "end_date": "20 Mar 2026",
      "zone": "North",
      "state": "Jammu & Kashmir",
      "city": "Srinagar",
      "location": "Lal Chowk Showroom",
      "type_of_location": "Showroom",
      "auditor": "Farooq Ahmed",
      "status": {
        "label": "Published",
        "color": "green"
      },
      "audit_name": "Annual Branch Audit"
    },
    {
      "audit_id": "AD-000048",
      "sched_date": "23 Mar 2026",
      "start_date": "25 Mar 2026",
      "end_date": "27 Mar 2026",
      "zone": "South",
      "state": "Andhra Pradesh",
      "city": "Tirupati",
      "location": "Leela Mahal Circle Office",
      "type_of_location": "Office",
      "auditor": "Venkateswara Rao",
      "status": {
        "label": "Upcoming",
        "color": "purple"
      },
      "audit_name": "Quarter Review Audit"
    },
    {
      "audit_id": "AD-000049",
      "sched_date": "30 Mar 2026",
      "start_date": "01 Apr 2026",
      "end_date": "03 Apr 2026",
      "zone": "West",
      "state": "Goa",
      "city": "Margao",
      "location": "KTC Bus Stand Branch",
      "type_of_location": "Branch",
      "auditor": "Joaquim Fernandes",
      "status": {
        "label": "In Progress",
        "color": "orange"
      },
      "audit_name": "Chola Audit June"
    },
    {
      "audit_id": "AD-000050",
      "sched_date": "06 Apr 2026",
      "start_date": "08 Apr 2026",
      "end_date": "10 Apr 2026",
      "zone": "East",
      "state": "Odisha",
      "city": "Cuttack",
      "location": "Badambadi Branch",
      "type_of_location": "Branch",
      "auditor": "Pradyumn Das",
      "status": {
        "label": "Published",
        "color": "green"
      },
      "audit_name": "Cholamandalam Audit Review"
    },
    {
      "audit_id": "AD-000051",
      "sched_date": "13 Apr 2026",
      "start_date": "15 Apr 2026",
      "end_date": "17 Apr 2026",
      "zone": "North",
      "state": "Rajasthan",
      "city": "Jodhpur",
      "location": "Sardarpura Office",
      "type_of_location": "Office",
      "auditor": "Bharat Rathore",
      "status": {
        "label": "Cancelled",
        "color": "red"
      },
      "audit_name": "Branch Compliance Audit"
    },
    {
      "audit_id": "AD-000052",
      "sched_date": "20 Apr 2026",
      "start_date": "22 Apr 2026",
      "end_date": "24 Apr 2026",
      "zone": "South",
      "state": "Tamil Nadu",
      "city": "Salem",
      "location": "Four Roads Showroom",
      "type_of_location": "Showroom",
      "auditor": "Geetha Sundaram",
      "status": {
        "label": "Upcoming",
        "color": "purple"
      },
      "audit_name": "Financial Year End Audit"
    },
    {
      "audit_id": "AD-000053",
      "sched_date": "27 Apr 2026",
      "start_date": "29 Apr 2026",
      "end_date": "01 May 2026",
      "zone": "West",
      "state": "Maharashtra",
      "city": "Aurangabad",
      "location": "Jalna Road Branch",
      "type_of_location": "Branch",
      "auditor": "-",
      "status": {
        "label": "Upcoming",
        "color": "purple"
      },
      "audit_name": "Internal Process Audit"
    },
    {
      "audit_id": "AD-000054",
      "sched_date": "04 May 2026",
      "start_date": "06 May 2026",
      "end_date": "08 May 2026",
      "zone": "East",
      "state": "West Bengal",
      "city": "Durgapur",
      "location": "City Centre Branch",
      "type_of_location": "Branch",
      "auditor": "Saurav Bose",
      "status": {
        "label": "Published",
        "color": "green"
      },
      "audit_name": "Risk Assessment Audit"
    },
    {
      "audit_id": "AD-000055",
      "sched_date": "11 May 2026",
      "start_date": "13 May 2026",
      "end_date": "15 May 2026",
      "zone": "North",
      "state": "Uttar Pradesh",
      "city": "Kanpur",
      "location": "Civil Lines Office",
      "type_of_location": "Office",
      "auditor": "Neeraj Awasthi",
      "status": {
        "label": "Review",
        "color": "pink"
      },
      "audit_name": "Customer Service Audit"
    },
    {
      "audit_id": "AD-000056",
      "sched_date": "18 May 2026",
      "start_date": "20 May 2026",
      "end_date": "22 May 2026",
      "zone": "South",
      "state": "Kerala",
      "city": "Kozhikode",
      "location": "Palayam Branch",
      "type_of_location": "Branch",
      "auditor": "Suresh Menon",
      "status": {
        "label": "Upcoming",
        "color": "purple"
      },
      "audit_name": "Operational Efficiency Audit"
    },
    {
      "audit_id": "AD-000057",
      "sched_date": "25 May 2026",
      "start_date": "27 May 2026",
      "end_date": "29 May 2026",
      "zone": "West",
      "state": "Gujarat",
      "city": "Rajkot",
      "location": "Kalavad Road Showroom",
      "type_of_location": "Showroom",
      "auditor": "Bhavesh Trivedi",
      "status": {
        "label": "Published",
        "color": "green"
      },
      "audit_name": "IT Security Audit"
    },
    {
      "audit_id": "AD-000058",
      "sched_date": "01 Jun 2026",
      "start_date": "03 Jun 2026",
      "end_date": "05 Jun 2026",
      "zone": "East",
      "state": "Assam",
      "city": "Dibrugarh",
      "location": "AT Road Branch",
      "type_of_location": "Branch",
      "auditor": "Dipankar Gogoi",
      "status": {
        "label": "Cancelled",
        "color": "red"
      },
      "audit_name": "Regulatory Compliance Audit"
    },
    {
      "audit_id": "AD-000059",
      "sched_date": "08 Jun 2026",
      "start_date": "10 Jun 2026",
      "end_date": "12 Jun 2026",
      "zone": "North",
      "state": "Delhi",
      "city": "New Delhi",
      "location": "Dwarka Office",
      "type_of_location": "Office",
      "auditor": "Shweta Singh",
      "status": {
        "label": "Upcoming",
        "color": "purple"
      },
      "audit_name": "Annual Branch Audit"
    },
    {
      "audit_id": "AD-000060",
      "sched_date": "15 Jun 2026",
      "start_date": "17 Jun 2026",
      "end_date": "19 Jun 2026",
      "zone": "South",
      "state": "Karnataka",
      "city": "Hubballi",
      "location": "Deshpande Nagar Branch",
      "type_of_location": "Branch",
      "auditor": "Prasanna Kulkarni",
      "status": {
        "label": "Published",
        "color": "green"
      },
      "audit_name": "Quarter Review Audit"
    },
    {
      "audit_id": "AD-000061",
      "sched_date": "22 Jun 2026",
      "start_date": "24 Jun 2026",
      "end_date": "26 Jun 2026",
      "zone": "West",
      "state": "Madhya Pradesh",
      "city": "Gwalior",
      "location": "Lashkar Office",
      "type_of_location": "Office",
      "auditor": "Ramkumar Sahu",
      "status": {
        "label": "In Progress",
        "color": "orange"
      },
      "audit_name": "Chola Audit June"
    },
    {
      "audit_id": "AD-000062",
      "sched_date": "29 Jun 2026",
      "start_date": "01 Jul 2026",
      "end_date": "03 Jul 2026",
      "zone": "East",
      "state": "Bihar",
      "city": "Muzaffarpur",
      "location": "Mithanpura Showroom",
      "type_of_location": "Showroom",
      "auditor": "-",
      "status": {
        "label": "Upcoming",
        "color": "purple"
      },
      "audit_name": "Cholamandalam Audit Review"
    },
    {
      "audit_id": "AD-000063",
      "sched_date": "06 Jul 2026",
      "start_date": "08 Jul 2026",
      "end_date": "10 Jul 2026",
      "zone": "North",
      "state": "Punjab",
      "city": "Amritsar",
      "location": "Hall Bazar Branch",
      "type_of_location": "Branch",
      "auditor": "Gurpreet Kaur",
      "status": {
        "label": "Published",
        "color": "green"
      },
      "audit_name": "Branch Compliance Audit"
    },
    {
      "audit_id": "AD-000064",
      "sched_date": "13 Jul 2026",
      "start_date": "15 Jul 2026",
      "end_date": "17 Jul 2026",
      "zone": "South",
      "state": "Telangana",
      "city": "Warangal",
      "location": "Hanamkonda Office",
      "type_of_location": "Office",
      "auditor": "Narayana Murthy",
      "status": {
        "label": "Cancelled",
        "color": "red"
      },
      "audit_name": "Financial Year End Audit"
    },
    {
      "audit_id": "AD-000065",
      "sched_date": "20 Jul 2026",
      "start_date": "22 Jul 2026",
      "end_date": "24 Jul 2026",
      "zone": "West",
      "state": "Maharashtra",
      "city": "Solapur",
      "location": "Railway Lines Branch",
      "type_of_location": "Branch",
      "auditor": "Sunanda Jadhav",
      "status": {
        "label": "Upcoming",
        "color": "purple"
      },
      "audit_name": "Internal Process Audit"
    },
    {
      "audit_id": "AD-000066",
      "sched_date": "27 Jul 2026",
      "start_date": "29 Jul 2026",
      "end_date": "31 Jul 2026",
      "zone": "East",
      "state": "Jharkhand",
      "city": "Jamshedpur",
      "location": "Bistupur Showroom",
      "type_of_location": "Showroom",
      "auditor": "Rohit Mandal",
      "status": {
        "label": "Published",
        "color": "green"
      },
      "audit_name": "Risk Assessment Audit"
    },
    {
      "audit_id": "AD-000067",
      "sched_date": "03 Aug 2026",
      "start_date": "05 Aug 2026",
      "end_date": "07 Aug 2026",
      "zone": "North",
      "state": "Uttarakhand",
      "city": "Haridwar",
      "location": "Ranipur More Branch",
      "type_of_location": "Branch",
      "auditor": "Pawan Rawat",
      "status": {
        "label": "In Progress",
        "color": "orange"
      },
      "audit_name": "Customer Service Audit"
    },
    {
      "audit_id": "AD-000068",
      "sched_date": "10 Aug 2026",
      "start_date": "12 Aug 2026",
      "end_date": "14 Aug 2026",
      "zone": "South",
      "state": "Tamil Nadu",
      "city": "Tiruchirappalli",
      "location": "Thillai Nagar Office",
      "type_of_location": "Office",
      "auditor": "Eswaran Pillai",
      "status": {
        "label": "Upcoming",
        "color": "purple"
      },
      "audit_name": "Operational Efficiency Audit"
    },
    {
      "audit_id": "AD-000069",
      "sched_date": "17 Aug 2026",
      "start_date": "19 Aug 2026",
      "end_date": "21 Aug 2026",
      "zone": "West",
      "state": "Rajasthan",
      "city": "Kota",
      "location": "Talwandi Branch",
      "type_of_location": "Branch",
      "auditor": "-",
      "status": {
        "label": "Cancelled",
        "color": "red"
      },
      "audit_name": "IT Security Audit"
    },
    {
      "audit_id": "AD-000070",
      "sched_date": "24 Aug 2026",
      "start_date": "26 Aug 2026",
      "end_date": "28 Aug 2026",
      "zone": "East",
      "state": "West Bengal",
      "city": "Siliguri",
      "location": "Sevoke Road Showroom",
      "type_of_location": "Showroom",
      "auditor": "Tapan Banerjee",
      "status": {
        "label": "Published",
        "color": "green"
      },
      "audit_name": "Regulatory Compliance Audit"
    },
    {
      "audit_id": "AD-000071",
      "sched_date": "31 Aug 2026",
      "start_date": "02 Sep 2026",
      "end_date": "04 Sep 2026",
      "zone": "North",
      "state": "Haryana",
      "city": "Ambala",
      "location": "Model Town Branch",
      "type_of_location": "Branch",
      "auditor": "Rekha Sharma",
      "status": {
        "label": "Upcoming",
        "color": "purple"
      },
      "audit_name": "Annual Branch Audit"
    },
    {
      "audit_id": "AD-000072",
      "sched_date": "07 Sep 2026",
      "start_date": "09 Sep 2026",
      "end_date": "11 Sep 2026",
      "zone": "South",
      "state": "Andhra Pradesh",
      "city": "Nellore",
      "location": "Grand Trunk Road Office",
      "type_of_location": "Office",
      "auditor": "Chandra Sekhar",
      "status": {
        "label": "Published",
        "color": "green"
      },
      "audit_name": "Quarter Review Audit"
    },
    {
      "audit_id": "AD-000073",
      "sched_date": "14 Sep 2026",
      "start_date": "16 Sep 2026",
      "end_date": "18 Sep 2026",
      "zone": "West",
      "state": "Gujarat",
      "city": "Bhavnagar",
      "location": "Ghogha Circle Branch",
      "type_of_location": "Branch",
      "auditor": "Jayesh Solanki",
      "status": {
        "label": "In Progress",
        "color": "orange"
      },
      "audit_name": "Chola Audit June"
    },
    {
      "audit_id": "AD-000074",
      "sched_date": "21 Sep 2026",
      "start_date": "23 Sep 2026",
      "end_date": "25 Sep 2026",
      "zone": "East",
      "state": "Assam",
      "city": "Silchar",
      "location": "Tarapur Showroom",
      "type_of_location": "Showroom",
      "auditor": "Kamal Laskar",
      "status": {
        "label": "Upcoming",
        "color": "purple"
      },
      "audit_name": "Cholamandalam Audit Review"
    },
    {
      "audit_id": "AD-000075",
      "sched_date": "28 Sep 2026",
      "start_date": "30 Sep 2026",
      "end_date": "02 Oct 2026",
      "zone": "North",
      "state": "Delhi",
      "city": "New Delhi",
      "location": "Rohini Branch",
      "type_of_location": "Branch",
      "auditor": "Aakash Gupta",
      "status": {
        "label": "Published",
        "color": "green"
      },
      "audit_name": "Branch Compliance Audit"
    },
    {
      "audit_id": "AD-000076",
      "sched_date": "05 Oct 2026",
      "start_date": "07 Oct 2026",
      "end_date": "09 Oct 2026",
      "zone": "South",
      "state": "Karnataka",
      "city": "Belagavi",
      "location": "Camp Office",
      "type_of_location": "Office",
      "auditor": "Savita Patil",
      "status": {
        "label": "Cancelled",
        "color": "red"
      },
      "audit_name": "Financial Year End Audit"
    },
    {
      "audit_id": "AD-000077",
      "sched_date": "12 Oct 2026",
      "start_date": "14 Oct 2026",
      "end_date": "16 Oct 2026",
      "zone": "West",
      "state": "Maharashtra",
      "city": "Kolhapur",
      "location": "Shivaji Park Branch",
      "type_of_location": "Branch",
      "auditor": "Rahul More",
      "status": {
        "label": "Upcoming",
        "color": "purple"
      },
      "audit_name": "Internal Process Audit"
    },
    {
      "audit_id": "AD-000078",
      "sched_date": "19 Oct 2026",
      "start_date": "21 Oct 2026",
      "end_date": "23 Oct 2026",
      "zone": "East",
      "state": "Odisha",
      "city": "Rourkela",
      "location": "Uditnagar Showroom",
      "type_of_location": "Showroom",
      "auditor": "-",
      "status": {
        "label": "Published",
        "color": "green"
      },
      "audit_name": "Risk Assessment Audit"
    },
    {
      "audit_id": "AD-000079",
      "sched_date": "26 Oct 2026",
      "start_date": "28 Oct 2026",
      "end_date": "30 Oct 2026",
      "zone": "North",
      "state": "Uttar Pradesh",
      "city": "Meerut",
      "location": "Hapur Road Branch",
      "type_of_location": "Branch",
      "auditor": "Akhilesh Tyagi",
      "status": {
        "label": "In Progress",
        "color": "orange"
      },
      "audit_name": "Customer Service Audit"
    },
    {
      "audit_id": "AD-000080",
      "sched_date": "02 Nov 2026",
      "start_date": "04 Nov 2026",
      "end_date": "06 Nov 2026",
      "zone": "South",
      "state": "Tamil Nadu",
      "city": "Vellore",
      "location": "Katpadi Road Office",
      "type_of_location": "Office",
      "auditor": "Muthukumar Raja",
      "status": {
        "label": "Upcoming",
        "color": "purple"
      },
      "audit_name": "Operational Efficiency Audit"
    }
  ]
}